Location,Type,Subtype,Phone,Address,lot_addr,depth1,depth2,depth3_legal,depth3_admin,road_addr,roadname,longitude,latitude
당곡,1,지구대,02-870-0810,서울특별시 관악구  남부순환로191길 12 당곡지구대,서울특별시 관악구 봉천동,서울특별시,관악구,봉천동,은천동,서울특별시 관악구  남부순환로191길 12 당곡지구대,남부순환로191길,126.93436440338,37.4860068452142
낙성대,1,지구대,02-870-0820,"서울특별시 관악구  봉천로 540, 낙성대지구대",서울특별시 관악구 봉천동,서울특별시,관악구,봉천동,낙성대동,"서울특별시 관악구  봉천로 540, 낙성대지구대",봉천로,126.95759572971,37.4783269065956
신림,1,지구대,02-870-0830,서울특별시 관악구  남부순환로188길 12 신림지구대,서울특별시 관악구 신림동,서울특별시,관악구,신림동,서원동,서울특별시 관악구  남부순환로188길 12 신림지구대,남부순환로188길,126.933317348962,37.4840164722611
관악산,1,지구대,02-870-0840,서울특별시 관악구  신림로 178 관악산지구대,서울특별시 관악구 신림동,서울특별시,관악구,신림동,서림동,서울특별시 관악구  신림로 178 관악산지구대,신림로,126.935263149906,37.473859396558
구암,1,지구대,02-870-0850,서울특별시 관악구 은천로 93,서울특별시 관악구 봉천동,서울특별시,관악구,봉천동,은천동,서울특별시 관악구 은천로 93,은천로,126.945428874003,37.4873527233282
남현,1,파출소,02-870-0890,서울특별시 관악구  남현1가길 29 남현파출소,서울특별시 관악구 남현동,서울특별시,관악구,남현동,남현동,서울특별시 관악구  남현1가길 29 남현파출소,남현1가길,126.977875262005,37.4746878600089
난우,1,파출소,02-870-0860,서울특별시 관악구  난곡로64 난우파출소,서울특별시 관악구 신림동,서울특별시,관악구,신림동,난향동,서울특별시 관악구  난곡로64 난우파출소,난곡로64,126.919249954798,37.4611182549024
미성,1,파출소,02-870-0870,서울특별시 관악구  난곡로64가길 31,서울특별시 관악구 신림동,서울특별시,관악구,신림동,미성동,서울특별시 관악구  난곡로64가길 31,난곡로64가길,126.915610467133,37.479924213477
신사,1,지구대,02-870-0880,서울특별시 관악구  신사로 106,서울특별시 관악구 신림동,서울특별시,관악구,신림동,신사동,서울특별시 관악구  신사로 106,신사로,126.914205074264,37.4872984954348
