store,sido,sigungu,sigungu_code,call,related_police,specified_year,availability,datetime,lot_addr,depth1,depth2,depth3_legal,depth3_admin,road_addr,roadname,longitude,latitude
CU 관악낙성점,서울특별시,관악구,11620,02-889-1069,관악경찰서,,Y,2022-09-28,서울특별시 관악구 봉천동,서울특별시,관악구,봉천동,행운동,서울특별시 관악구 솔밭로 5,솔밭로,126.962569741548,37.478183524472
CU 관악리베로점,서울특별시,관악구,11620,02-882-9718,관악경찰서,,Y,2022-09-28,서울특별시 관악구 신림동,서울특별시,관악구,신림동,신림동,서울특별시 관악구 신림동길 38,신림동길,126.924458373873,37.4868902216568
CU 관악미림점,서울특별시,관악구,11620,02-883-1032,관악경찰서,,Y,2022-09-28,서울특별시 관악구 신림동,서울특별시,관악구,신림동,대학동,서울특별시 관악구 호암로20길 1,호암로20길,126.932163482267,37.467793136754
CU 관악샛별점,서울특별시,관악구,11620,02-830-6288,관악경찰서,,Y,2022-09-28,서울특별시 관악구 신림동,서울특별시,관악구,신림동,조원동,서울특별시 관악구 조원로 87,조원로,126.911943662258,37.4846038989184
CU 관악에스식스점,서울특별시,관악구,11620,,관악경찰서,,Y,2022-09-28,서울특별시 관악구 신림동,서울특별시,관악구,신림동,삼성동,서울특별시 관악구 양지5길 2,양지5길,126.931278994466,37.4715572281427
CU 관악진우점,서울특별시,관악구,11620,02-865-5258,관악경찰서,,Y,2022-09-28,서울특별시 관악구 신림동,서울특별시,관악구,신림동,미성동,서울특별시 관악구 남부순환로 1536,남부순환로,126.921313240377,37.4827774089254
CU 낙성대역점,서울특별시,관악구,11620,02-877-7084,관악경찰서,,Y,2022-09-28,서울특별시 관악구 봉천동,서울특별시,관악구,봉천동,인헌동,서울특별시 관악구 봉천로 604-1,봉천로,126.964203396611,37.4758441087801
CU 관악트윈스점,서울특별시,관악구,11620,02-883-1789,관악경찰서,2020,Y,2022-09-28,서울특별시 관악구 봉천동,서울특별시,관악구,봉천동,중앙동,서울특별시 관악구 양녕로6길 78,양녕로6길,126.950727513268,37.4835032415789
CU 관악첼시점,서울특별시,관악구,11620,0507-1312-5806,관악경찰서,2020,Y,2022-09-28,서울특별시 관악구 봉천동,서울특별시,관악구,봉천동,보라매동,서울특별시 관악구 당곡6나길 33,당곡6나길,126.931523203927,37.4925873634371
CU 관악서림점,서울특별시,관악구,11620,02-871-5121,관악경찰서,2020,Y,2022-09-28,서울특별시 관악구 신림동,서울특별시,관악구,신림동,서림동,서울특별시 관악구 서림3길 32,서림3길,126.940016386988,37.4728176344284
CU 관악보라매점,서울특별시,관악구,11620,02-875-0949,관악경찰서,2021,Y,2022-09-28,서울특별시 관악구 봉천동,서울특별시,관악구,봉천동,보라매동,서울특별시 관악구 봉천로 307,봉천로,126.935003085886,37.4867072815623
CU 관악서원점,서울특별시,관악구,11620,02-884-4363,관악경찰서,2021,Y,2022-09-28,서울특별시 관악구 신림동,서울특별시,관악구,신림동,서원동,서울특별시 관악구 신림로 274,신림로,126.931821142646,37.4792995582775
CU 서울대서연점,서울특별시,관악구,11620,02-883-6003,관악경찰서,2021,Y,2022-09-28,서울특별시 관악구 봉천동,서울특별시,관악구,봉천동,낙성대동,서울특별시 관악구 관악로 132,관악로,126.952720071703,37.4770139973479
CU 관악동원점,서울특별시,관악구,11620,02-882-2188,관악경찰서,2021,Y,2022-09-28,서울특별시 관악구 신림동,서울특별시,관악구,신림동,대학동,서울특별시 관악구 호암로26가길 43,호암로26가길,126.933303761717,37.4688997766138
CU 신림테라스점,서울특별시,관악구,11620,070-8866-7700,관악경찰서,2021,Y,2022-09-28,서울특별시 관악구 신림동,서울특별시,관악구,신림동,대학동,서울특별시 관악구 호암로26길 47,호암로26길,126.936234178886,37.4704845600256
GS25 관악봉천,서울특별시,관악구,11620,02-873-9368,관악경찰서,,Y,2022-09-28,서울특별시 관악구 봉천동,서울특별시,관악구,봉천동,청룡동,서울특별시 관악구 관악로17길 25,관악로17길,126.95025710316,37.4806955912288
GS25 관악세봉,서울특별시,관악구,11620,02-875-7013,관악경찰서,,Y,2022-09-28,서울특별시 관악구 봉천동,서울특별시,관악구,봉천동,청룡동,서울특별시 관악구 관악로5길 84,관악로5길,126.951736764534,37.4765925580132
GS25 관악원앙,서울특별시,관악구,11620,02-882-4442,관악경찰서,,Y,2022-09-28,서울특별시 관악구 봉천동,서울특별시,관악구,봉천동,청룡동,서울특별시 관악구 남부순환로 218길 46,남부순환로,126.950047344898,37.4793834533004
GS25 관악푸르지오,서울특별시,관악구,11620,02-882-0008,관악경찰서,,Y,2022-09-28,서울특별시 관악구 봉천동,서울특별시,관악구,봉천동,청림동,서울특별시 관악구 관악로30길 17,관악로30길,126.959006254254,37.4865570381086
GS25 관악한일,서울특별시,관악구,11620,02-581-7071,관악경찰서,,Y,2022-09-28,서울특별시 관악구 남현동,서울특별시,관악구,남현동,남현동,서울특별시 관악구 승방2길 2,승방2길,126.981338773995,37.4739629644835
GS25 남현번영,서울특별시,관악구,11620,02-445-5896,관악경찰서,,Y,2022-09-28,서울특별시 관악구 남현동,서울특별시,관악구,남현동,남현동,서울특별시 관악구 승방4길 27,승방4길,126.980439446302,37.4748763530926
GS25 봉천동부,서울특별시,관악구,11620,02-877-5549,관악경찰서,,Y,2022-09-28,서울특별시 관악구 봉천동,서울특별시,관악구,봉천동,성현동,서울특별시 관악구 은천로 143,은천로,126.951265478693,37.4866312249968
GS25 봉천동신,서울특별시,관악구,11620,02-875-0329,관악경찰서,,Y,2022-09-28,서울특별시 관악구 봉천동,서울특별시,관악구,봉천동,보라매동,서울특별시 관악구 봉천로21나길 35 1층,봉천로21나길,126.936188701018,37.4888721487085
GS25 봉천번영,서울특별시,관악구,11620,02-883-2009,관악경찰서,,Y,2022-09-28,서울특별시 관악구 봉천동,서울특별시,관악구,봉천동,낙성대동,서울특별시 관악구 관악로14가길 45,관악로14가길,126.955552548346,37.4764454785134
GS25 뉴신림로데오,서울특별시,관악구,11620,1644-5425,관악경찰서,,Y,2022-09-28,서울특별시 관악구 신림동,서울특별시,관악구,신림동,신림동,서울특별시 관악구 봉천로6길 30,봉천로6길,126.925498986348,37.488339342599
GS25 신림성화,서울특별시,관악구,11620,02-867-6865,관악경찰서,,Y,2022-09-28,서울특별시 관악구 신림동,서울특별시,관악구,신림동,신원동,서울특별시 관악구 남부순환로 1578,남부순환로,126.925933989055,37.48351417723
GS25 신림왕성,서울특별시,관악구,11620,02-888-8038,관악경찰서,,Y,2022-09-28,서울특별시 관악구 신림동,서울특별시,관악구,신림동,서원동,서울특별시 관악구 신림로 304,신림로,126.93022385624,37.481363738335
GS25 인헌마루,서울특별시,관악구,11620,02-882-6730,관악경찰서,,Y,2022-09-28,서울특별시 관악구 봉천동,서울특별시,관악구,봉천동,인헌동,서울특별시 관악구 인헌길 141,인헌길,126.968610125347,37.4695602744384
GS25 관악봉림점,서울특별시,관악구,11620,02-877-4011,관악경찰서,2020,Y,2022-09-28,서울특별시 관악구 봉천동,서울특별시,관악구,봉천동,청룡동,서울특별시 관악구 장군봉7길 2,장군봉7길,126.939438548588,37.4805811588285
GS25 중앙한가온점,서울특별시,관악구,11620,02-883-1250,관악경찰서,2020,Y,2022-09-28,서울특별시 관악구 봉천동,서울특별시,관악구,봉천동,중앙동,서울특별시 관악구 중앙길 78,중앙길,126.950768991519,37.485423848405
GS25 신림법원단지,서울특별시,관악구,11620,02-866-2232,관악경찰서,2020,Y,2022-09-28,서울특별시 관악구 신림동,서울특별시,관악구,신림동,난곡동,서울특별시 관악구 법원단지길 48,법원단지길,126.920161834645,37.4741373999803
GS25 신림복은점,서울특별시,관악구,11620,02-882-2494,관악경찰서,2020,Y,2022-09-28,서울특별시 관악구 신림동,서울특별시,관악구,신림동,서림동,서울특별시 관악구 복은길 60,복은길,126.939194045505,37.4745239072927
GS25 관악승리점,서울특별시,관악구,11620,1644-5425,관악경찰서,2021,Y,2022-09-28,서울특별시 관악구 봉천동,서울특별시,관악구,봉천동,보라매동,서울특별시 관악구 봉천로 281,봉천로,126.932488744911,37.4877270739545
GS25 서울대역점,서울특별시,관악구,11620,02-875-2525,관악경찰서,2022,Y,2022-09-28,서울특별시 관악구 봉천동,서울특별시,관악구,봉천동,낙성대동,서울특별시 관악구 관악로144,관악로144,126.952601346066,37.4779373944062
GS25 관악대성점,서울특별시,관악구,11620,02-873-1478,관악경찰서,2022,Y,2022-09-28,서울특별시 관악구 봉천동,서울특별시,관악구,봉천동,낙성대동,서울특별시 관악구 관악로12길 17,관악로12길,126.953377440912,37.4781789935059
GS25 신림두림점,서울특별시,관악구,11620,02-871-1278,관악경찰서,2021,Y,2022-09-28,서울특별시 관악구 신림동,서울특별시,관악구,신림동,서원동,서울특별시 관악구 남부순환로 1648,남부순환로,126.93390587138,37.484511186246
세븐일레븐 봉천남부점,서울특별시,관악구,11620,1577-9621,관악경찰서,,Y,2022-09-28,서울특별시 관악구 봉천동,서울특별시,관악구,봉천동,청룡동,서울특별시 관악구 남부순환로 1716,남부순환로,126.940613730465,37.4825397376028
미니스톱 신림본점,서울특별시,관악구,11620,1577-9621,관악경찰서,,Y,2022-09-28,서울특별시 관악구 신림동,서울특별시,관악구,신림동,서원동,서울특별시 관악구 신림로 270,신림로,126.932168278055,37.478998370514
미니스톱 관악정옥점,서울특별시,관악구,11620,1577-9621,관악경찰서,,Y,2022-09-28,서울특별시 관악구 봉천동,서울특별시,관악구,봉천동,청룡동,서울특별시 관악구 관악로 15길 39,관악로,126.950184316356,37.4803185783904
미니스톱 신림양지점,서울특별시,관악구,11620,1577-9621,관악경찰서,,Y,2022-09-28,서울특별시 관악구 신림동,서울특별시,관악구,신림동,신림동,서울특별시 관악구 신림로68길 10,신림로68길,126.929915779623,37.4864304668985
세븐일레븐 관악구청점,서울특별시,관악구,11620,,관악경찰서,,Y,2022-09-28,서울특별시 관악구 봉천동,서울특별시,관악구,봉천동,낙성대동,서울특별시 관악구 관악로 154,관악로,126.952620964816,37.478916799431
세븐일레븐 봉천1호점,서울특별시,관악구,11620,02-877-0450,관악경찰서,,Y,2022-09-28,서울특별시 관악구 봉천동,서울특별시,관악구,봉천동,청룡동,서울특별시 관악구 남부순환로 1766,남부순환로,126.946114635644,37.481700832272
세븐일레븐 봉천해주점,서울특별시,관악구,11620,02-877-7873,관악경찰서,,Y,2022-09-28,서울특별시 관악구 봉천동,서울특별시,관악구,봉천동,중앙동,서울특별시 관악구 봉천로 466,봉천로,126.951638187547,37.4820210080697
세븐일레븐 서울대서진점,서울특별시,관악구,11620,,관악경찰서,,Y,2022-09-28,서울특별시 관악구 봉천동,서울특별시,관악구,봉천동,청룡동,서울특별시 관악구 관악로17길 3,관악로17길,126.951517874514,37.4806435864637
세븐일레븐 신림대학스타점,서울특별시,관악구,11620,02-878-0845,관악경찰서,,Y,2022-09-28,서울특별시 관악구 신림동,서울특별시,관악구,신림동,대학동,서울특별시 관악구 호암로24길 6,호암로24길,126.933544333443,37.469902376597
세븐일레븐 신사시장점,서울특별시,관악구,11620,02-830-6586,관악경찰서,,Y,2022-09-28,서울특별시 관악구 신림동,서울특별시,관악구,신림동,신사동,서울특별시 관악구 남부순환로 153길 35,남부순환로,126.916327064641,37.4840565684833
세븐일레븐 신림문화점,서울특별시,관악구,11620,02-871-3320,관악경찰서,,Y,2022-09-28,서울특별시 관악구 신림동,서울특별시,관악구,신림동,신림동,서울특별시 관악구 신림동길 15,신림동길,126.927051749671,37.4871164726381
세븐일레븐 관악신원점,서울특별시,관악구,11620,02-863-9587,관악경찰서,2020,Y,2022-09-28,서울특별시 관악구 신림동,서울특별시,관악구,신림동,신원동,서울특별시 관악구 남부순환로168가길 47,남부순환로168가길,126.926901273155,37.4805971333402
세븐일레븐 관악미림점,서울특별시,관악구,11620,02-871-1379,관악경찰서,2020,Y,2022-09-28,서울특별시 관악구 신림동,서울특별시,관악구,신림동,대학동,서울특별시 관악구 호암로20길 67,호암로20길,126.935734030822,37.467093875724
세븐일레븐 서울대입구역점,서울특별시,관악구,11620,02-6276-8777,관악경찰서,2021,Y,2022-09-28,서울특별시 관악구 봉천동,서울특별시,관악구,봉천동,청룡동,서울특별시 관악구 남부순환로 1820,남부순환로,126.952083773717,37.4809479979455
씨스페이스 구로공단점,서울특별시,관악구,11620,0507-1325-4280,관악경찰서,,Y,2022-09-28,서울특별시 관악구 신림동,서울특별시,관악구,신림동,조원동,서울특별시 관악구 조원로 6,조원로,126.902743197396,37.4834043794316
